[
  {
    "id": 1,
    "name": "영대 꿀잼 코인노래방",
    "category": "Activity",
    "lat": 35.8295,
    "lng": 128.7548,
    "comment": "최신 곡 업데이트 빠름! 음향 시설 굿!"
  },
  {
    "id": 2,
    "name": "맛있는 마라탕 영대본점",
    "category": "Food",
    "lat": 35.8301,
    "lng": 128.7551,
    "comment": "마라 초보자도 먹기 좋은 얼얼한 맛"
  },
  {
    "id": 3,
    "name": "하양역 감성 카페 오아시스",
    "category": "Food",
    "lat": 35.9134,
    "lng": 128.8188,
    "comment": "카공하기 딱 좋은 조용한 분위기"
  },
  {
    "id": 4,
    "name": "경산 보드게임 카페 다이스",
    "category": "Activity",
    "lat": 35.8288,
    "lng": 128.7539,
    "comment": "다양한 보드게임 보유, 단체석 완비"
  },
  {
    "id": 5,
    "name": "매콤 달콤 영대 떡볶이",
    "category": "Food",
    "lat": 35.8290,
    "lng": 128.7545,
    "comment": "추억의 맛! 가성비 최고 분식집"
  }
]
